City_ID,City,Lat,Lng,Max Temp,Humidity,Cloudiness,Wind Speed,Country,Date
0,kodinsk,58.6881,99.1844,62.38,55,77,4.07,RU,1628352766
1,hithadhoo,-0.6,73.0833,82.44,67,100,4.47,MV,1628352766
2,upernavik,72.7868,-56.1549,41.14,93,100,9.22,GL,1628352767
3,bismarck,46.8083,-100.7837,73.87,65,20,3.44,US,1628352602
4,avarua,-21.2078,-159.775,73.45,83,20,4.61,CK,1628352768
5,leningradskiy,69.3833,178.4167,37.47,91,100,8.68,RU,1628352768
6,dikson,73.5069,80.5464,49.64,70,13,9.71,RU,1628352768
7,oktyabrskoye,43.0645,44.7417,82.54,74,75,6.71,RU,1628352769
8,carnarvon,-24.8667,113.6333,66.27,90,75,3.44,AU,1628352769
9,hobart,-42.8794,147.3294,38.05,87,33,1.99,AU,1628352622
10,lazurne,46.084,32.5295,75.65,53,100,18.79,UA,1628352770
11,nanortalik,60.1432,-45.2371,48.7,75,100,13.6,GL,1628352770
12,northam,51.0333,-4.2167,64.02,87,62,23.06,GB,1628352770
13,severo-kurilsk,50.6789,156.125,53.2,86,97,14.12,RU,1628352770
14,bud,39.447,-86.1758,83.43,70,47,7.65,US,1628352771
15,saint-philippe,-21.3585,55.7679,69.39,76,57,13.71,RE,1628352771
16,taltal,-25.4,-70.4833,57.56,73,21,5.39,CL,1628352772
17,codrington,-38.2667,141.9667,47.23,83,90,5.97,AU,1628352773
18,arraial do cabo,-22.9661,-42.0278,73.26,56,75,20.71,BR,1628352773
19,hermanus,-34.4187,19.2345,55.9,77,100,2.66,ZA,1628352773
20,geraldton,-28.7667,114.6,66.61,88,75,14.97,AU,1628352774
21,upata,8.0086,-62.3989,86.2,77,50,1.43,VE,1628352774
22,atuona,-9.8,-139.0333,77.47,80,92,18.28,PF,1628352774
23,oussouye,12.485,-16.5469,82.18,75,95,11.63,SN,1628352775
24,albany,42.6001,-73.9662,85.8,70,100,2.62,US,1628352775
25,new norfolk,-42.7826,147.0587,37.71,83,52,2.77,AU,1628352775
26,saskylakh,71.9167,114.0833,46.72,84,19,7.87,RU,1628352776
27,kapaa,22.0752,-159.319,79.12,76,40,1.01,US,1628352776
28,east london,-33.0153,27.9116,63.28,72,67,8.99,ZA,1628352776
29,norman wells,65.282,-126.8329,43.05,85,100,6.44,CA,1628352777
30,ketchikan,55.3422,-131.6461,55.87,94,40,4.61,US,1628352778
31,georgetown,5.4112,100.3354,84.88,80,20,0.0,MY,1628352485
32,hamilton,39.1834,-84.5333,84.78,64,1,1.01,US,1628352483
33,cherskiy,68.75,161.3,48.88,59,100,5.5,RU,1628352779
34,san patricio,28.017,-97.5169,90.88,54,7,11.34,US,1628352779
35,choma,-16.8065,26.9531,66.36,19,0,5.99,ZM,1628352779
36,iqaluit,63.7506,-68.5145,38.07,98,100,12.95,CA,1628352681
37,tuatapere,-46.1333,167.6833,34.83,94,100,1.61,NZ,1628352780
38,qaqortoq,60.7167,-46.0333,52.3,84,100,0.49,GL,1628352780
39,helong,42.5397,128.9972,63.41,94,46,3.98,CN,1628352780
40,adolfo lopez mateos,28.4667,-107.3,74.93,47,1,5.99,MX,1628352781
41,busselton,-33.65,115.3333,59.09,92,100,14.94,AU,1628352781
42,antofagasta,-23.65,-70.4,60.08,63,12,7.76,CL,1628352782
43,teluknaga,-6.0989,106.6381,82.44,78,20,9.22,ID,1628352784
44,prado,-17.3411,-39.2208,73.92,66,74,7.74,BR,1628352784
45,puerto ayora,-0.7393,-90.3518,76.96,83,81,8.99,EC,1628352785
46,yumen,40.2833,97.2,73.35,30,90,8.84,CN,1628352785
47,buraydah,26.326,43.975,100.94,11,93,3.67,SA,1628352584
48,ishigaki,24.3448,124.1572,80.8,90,100,20.27,JP,1628352785
49,muskogee,35.5834,-95.3336,89.35,70,1,9.22,US,1628352786
50,longyearbyen,78.2186,15.6401,48.04,76,75,12.66,SJ,1628352786
51,castro,-24.7911,-50.0119,64.98,63,98,7.85,BR,1628352726
52,viedma,-40.8135,-62.9967,56.8,33,100,17.45,AR,1628352518
53,airai,-8.9266,125.4092,53.47,80,27,2.82,TL,1628352787
54,ushuaia,-54.8,-68.3,33.46,86,75,19.57,AR,1628352590
55,camana,-16.6228,-72.7111,64.4,73,56,7.45,PE,1628352787
56,sartell,45.6216,-94.2069,70.14,97,90,3.44,US,1628352770
57,cape town,-33.9258,18.4232,57.88,86,90,1.01,ZA,1628352744
58,drochia,48.035,27.8161,75.0,48,0,6.51,MD,1628352788
59,tasiilaq,65.6145,-37.6368,46.56,93,99,5.61,GL,1628352788
60,amreli,21.6167,71.2333,82.71,70,51,14.34,IN,1628352788
61,punta arenas,-53.15,-70.9167,35.71,87,40,28.77,CL,1628352786
62,iglesias,39.3114,8.535,86.63,23,0,7.34,IT,1628352789
63,ixtapa,20.7,-105.2,84.22,74,20,0.0,MX,1628352789
64,mataura,-46.1927,168.8643,34.48,98,100,1.36,NZ,1628352790
65,nikolskoye,59.7035,30.7861,62.49,99,100,7.76,RU,1628352790
66,turbat,26.0023,63.044,91.71,48,9,5.93,PK,1628352790
67,eyl,7.9803,49.8164,77.34,76,76,26.33,SO,1628352791
68,tuktoyaktuk,69.4541,-133.0374,41.41,85,100,12.57,CA,1628352791
69,hohhot,40.8106,111.6522,74.44,25,99,2.13,CN,1628352792
70,brae,60.3964,-1.353,60.71,91,100,22.3,GB,1628352792
71,grand gaube,-20.0064,57.6608,72.37,68,2,7.0,MU,1628352793
72,vaini,-21.2,-175.2,66.36,82,20,6.91,TO,1628352793
73,college,64.8569,-147.8028,58.59,93,90,4.61,US,1628352694
74,taoudenni,22.6783,-3.9836,116.29,7,7,8.68,ML,1628352794
75,hofn,64.2539,-15.2082,55.63,85,100,8.57,IS,1628352794
76,coahuayana,18.7333,-103.6833,80.08,61,69,0.58,MX,1628352794
77,pevek,69.7008,170.3133,39.58,85,37,6.08,RU,1628352795
78,cayenne,4.9333,-52.3333,89.64,75,40,4.0,GF,1628352795
79,rikitea,-23.1203,-134.9692,73.83,80,4,9.08,PF,1628352796
80,hilo,19.7297,-155.09,73.13,90,90,5.75,US,1628352773
81,pisco,-13.7,-76.2167,63.01,72,75,6.91,PE,1628352797
82,samarai,-10.6167,150.6667,77.02,87,100,15.39,PG,1628352797
83,salalah,17.0151,54.0924,78.89,89,75,6.91,OM,1628352797
84,constitucion,-35.3333,-72.4167,56.03,66,66,10.69,CL,1628352798
85,lata,40.1629,-8.3327,79.03,37,5,12.64,PT,1628352798
86,sioux lookout,50.1001,-91.917,61.18,57,90,8.3,CA,1628352799
87,jamestown,42.097,-79.2353,81.72,65,1,8.05,US,1628352799
88,asau,46.4333,26.4,77.4,48,41,3.13,RO,1628352799
89,mar del plata,-38.0023,-57.5575,57.22,100,75,12.66,AR,1628352800
90,irbeyskoye,55.6428,95.4522,60.6,90,11,2.57,RU,1628352800
91,portland,45.5234,-122.6762,73.11,71,40,1.01,US,1628352633
92,paysandu,-32.3214,-58.0756,77.61,55,1,10.0,UY,1628352801
93,hasaki,35.7333,140.8333,79.2,88,100,11.07,JP,1628352801
94,faya,18.3851,42.4509,66.72,67,66,9.1,SA,1628352802
95,nagyecsed,47.8655,22.3916,84.29,29,5,5.68,HU,1628352802
96,kodiak,57.79,-152.4072,54.91,88,75,0.0,US,1628352802
97,chicama,-7.8447,-79.1469,63.14,65,56,8.72,PE,1628352803
98,alice springs,-23.7,133.8833,40.55,48,0,5.75,AU,1628352786
99,media luna,20.1419,-77.435,85.48,66,49,4.21,CU,1628352803
100,port alfred,-33.5906,26.891,61.52,78,63,13.8,ZA,1628352804
101,dingle,10.9995,122.6711,76.82,88,18,2.59,PH,1628352804
102,kaitangata,-46.2817,169.8464,37.0,92,100,5.44,NZ,1628352804
103,lebu,-37.6167,-73.65,51.35,65,19,17.16,CL,1628352805
104,pankovka,58.5,31.1999,68.13,91,81,5.99,RU,1628352805
105,taksimo,56.3444,114.8794,60.51,87,100,3.33,RU,1628352805
106,kualakapuas,-3.0091,114.3876,78.96,89,97,3.44,ID,1628352806
107,maumere,-8.6199,122.2111,75.47,78,73,4.61,ID,1628352806
108,saint george,37.1041,-113.5841,84.67,17,1,1.39,US,1628352807
109,kindu,-2.95,25.95,80.96,60,57,3.0,CD,1628352807
110,esperance,-33.8667,121.9,57.16,83,100,18.39,AU,1628352808
111,rundu,-17.9333,19.7667,78.62,10,0,5.75,NA,1628352808
112,conneaut,41.9476,-80.5542,84.69,59,49,7.0,US,1628352808
113,comodoro rivadavia,-45.8667,-67.5,51.66,37,26,25.32,AR,1628352809
114,qaanaaq,77.484,-69.3632,41.83,72,91,5.73,GL,1628352809
115,eatonton,33.3268,-83.3885,87.58,63,30,3.29,US,1628352784
116,iralaya,15.0,-83.2333,86.09,80,100,10.56,HN,1628352810
117,barrow,71.2906,-156.7887,35.62,81,90,0.0,US,1628352810
118,moron,-34.6534,-58.6198,77.02,63,11,5.01,AR,1628352810
119,tahta,26.7693,31.5021,106.75,10,0,9.06,EG,1628352811
120,bend,44.0582,-121.3153,70.99,58,1,3.0,US,1628352811
121,saldanha,-33.0117,17.9442,57.56,70,100,5.68,ZA,1628352812
122,pingzhuang,42.0372,119.2889,69.01,67,0,4.14,CN,1628352813
123,pokhara,28.2333,83.9833,73.63,85,39,3.13,NP,1628352551
124,cidreira,-30.1811,-50.2056,68.2,70,13,11.68,BR,1628352813
125,potchefstroom,-26.7167,27.1,60.1,13,0,6.82,ZA,1628352813
126,xapuri,-10.6517,-68.5044,97.14,21,0,2.39,BR,1628352814
127,farafangana,-22.8167,47.8333,68.04,79,0,5.1,MG,1628352814
128,vestmannaeyjar,63.4427,-20.2734,58.19,82,75,8.05,IS,1628352814
129,yar-sale,66.8333,70.8333,67.08,68,15,5.35,RU,1628352815
130,pinerolo,44.8833,7.35,77.85,79,79,7.16,IT,1628352815
131,atasu,48.6814,71.6433,69.85,59,99,3.56,KZ,1628352660
132,aswan,24.0934,32.907,99.79,29,69,18.41,EG,1628352566
133,yellowknife,62.456,-114.3525,58.86,91,100,12.84,CA,1628352815
134,yokadouma,3.5167,15.05,70.57,97,100,0.51,CM,1628352816
135,auki,-8.7676,160.7034,76.6,83,100,3.27,SB,1628352816
136,atbasar,51.8,68.3333,68.95,53,6,14.61,KZ,1628352816
137,merauke,-8.4667,140.3333,73.85,80,86,12.86,ID,1628352818
138,dod ballapur,13.2919,77.5431,73.42,77,97,13.09,IN,1628352818
139,salinas,36.6777,-121.6555,72.03,85,90,3.44,US,1628352819
140,port blair,11.6667,92.75,82.38,82,98,15.77,IN,1628352819
141,mount isa,-20.7333,139.5,55.17,33,0,3.44,AU,1628352791
142,ancud,-41.8697,-73.8203,49.42,64,86,5.91,CL,1628352819
143,maracacume,-2.0428,-45.9592,88.81,50,17,4.43,BR,1628352820
144,butaritari,3.0707,172.7902,81.91,71,20,12.88,KI,1628352820
145,kendari,-3.945,122.4989,74.5,88,100,2.89,ID,1628352820
146,pascagoula,30.3658,-88.5561,89.6,61,75,0.0,US,1628352821
147,port lincoln,-34.7333,135.8667,53.04,74,47,9.28,AU,1628352821
148,souillac,-20.5167,57.5167,72.36,72,9,12.06,MU,1628352822
149,harbour breton,47.4833,-55.7983,62.28,97,100,12.66,CA,1628352822
150,fort nelson,58.8053,-122.7002,52.25,97,100,14.72,CA,1628352823
151,poum,-20.2333,164.0167,69.17,71,85,10.58,NC,1628352823
152,necochea,-38.5473,-58.7368,60.04,57,100,12.21,AR,1628352824
153,severodvinsk,64.5635,39.8302,69.91,64,6,7.61,RU,1628352824
154,emerald,-23.5333,148.1667,50.76,52,0,10.2,AU,1628352824
155,saint anthony,45.0205,-93.218,70.56,93,90,4.61,US,1628352825
156,hambantota,6.1241,81.1185,80.04,80,97,20.76,LK,1628352825
157,cabo san lucas,22.8909,-109.9124,89.62,67,20,4.0,MX,1628352600
158,straumen,63.8709,11.2999,73.4,48,96,13.24,NO,1628352825
159,talnakh,69.4865,88.3972,63.86,46,79,4.72,RU,1628352826
160,praia,14.9215,-23.5087,79.83,81,67,8.37,CV,1628352826
161,broken hill,-31.95,141.4333,47.35,73,0,8.23,AU,1628352827
162,teknaf,20.8624,92.3058,79.93,90,39,7.72,BD,1628352827
163,nikolayevskaya,47.6139,41.5023,96.53,20,100,13.78,RU,1628352828
164,dese,11.1333,39.6333,58.8,74,20,2.55,ET,1628352828
165,rudbar,30.15,62.6,95.67,10,0,14.2,AF,1628352829
166,fernie,49.5,-115.0687,71.62,55,54,7.78,CA,1628352829
167,zhicheng,30.2956,111.5047,78.15,81,45,3.47,CN,1628352829
168,kimbe,-5.5502,150.1429,73.94,94,66,4.7,PG,1628352830
169,lukovetskiy,64.2956,41.9211,69.78,53,31,7.16,RU,1628352830
170,zhengjiatun,43.5064,123.5064,71.4,73,23,6.73,CN,1628352830
171,husavik,66.0449,-17.3389,59.47,66,77,8.03,IS,1628352831
172,tiznit,29.5833,-9.5,75.06,59,3,12.48,MA,1628352831
173,saquarema,-22.92,-42.5103,77.02,61,97,18.7,BR,1628352831
174,nebolchi,59.1239,33.3454,64.92,97,99,7.65,RU,1628352831
175,nileshwar,12.25,75.1,77.95,89,98,7.4,IN,1628352832
176,ahipara,-35.1667,173.1667,52.95,86,36,7.61,NZ,1628352832
177,victoria,22.2855,114.1577,84.33,87,100,8.01,HK,1628352675
178,korla,41.7597,86.1469,82.74,29,5,5.46,CN,1628352833
179,fortuna,40.5982,-124.1573,60.93,70,90,0.0,US,1628352833
180,egvekinot,66.3167,-179.1667,37.06,87,71,14.29,RU,1628352834
181,luena,-11.7833,19.9167,78.49,10,13,6.22,AO,1628352834
182,wobulenzi,0.7283,32.5122,78.06,46,43,6.26,UG,1628352835
183,ribeira grande,38.5167,-28.7,75.6,57,40,14.97,PT,1628352835
184,benicia,38.0494,-122.1586,73.9,81,20,1.99,US,1628352835
185,tondano,1.3038,124.9112,75.29,93,100,5.46,ID,1628352836
186,puri,19.8,85.85,84.72,79,78,14.88,IN,1628352836
187,klaksvik,62.2266,-6.589,67.12,88,100,21.05,FO,1628352836
188,nola,40.922,14.5329,92.64,34,0,6.4,IT,1628352837
189,pangkalanbuun,-2.6833,111.6167,76.5,93,19,2.1,ID,1628352837
190,boende,-0.2167,20.8667,73.42,92,100,2.71,CD,1628352839
191,kyrksaeterora,63.2906,9.0891,75.85,43,97,17.16,NO,1628352839
192,buala,-8.145,159.5921,78.42,79,98,4.12,SB,1628352839
193,islamkot,24.6997,70.177,88.0,55,20,13.42,PK,1628352840
194,vilyuysk,63.7553,121.6247,65.97,54,95,11.5,RU,1628352840
195,tacna,-18.0056,-70.2483,59.2,67,20,4.61,PE,1628352840
196,alofi,-19.0595,-169.9187,74.34,70,24,13.69,NU,1628352841
197,wonthaggi,-38.6044,145.5913,49.37,82,68,1.34,AU,1628352841
198,faanui,-16.4833,-151.75,77.88,69,87,10.07,PF,1628352620
199,bar-le-duc,48.75,5.1667,69.98,83,95,14.81,FR,1628352842
200,nome,64.5011,-165.4064,46.47,87,90,11.5,US,1628352842
201,coruripe,-10.1256,-36.1756,78.1,59,16,14.25,BR,1628352842
202,koplik,42.2136,19.4364,92.8,29,2,6.78,AL,1628352844
203,bundaberg,-24.85,152.35,53.22,91,0,1.01,AU,1628352798
204,horasan,40.0458,42.1728,68.72,56,41,2.48,TR,1628352844
205,bengkulu,-3.8004,102.2655,77.11,89,18,3.53,ID,1628352845
206,provideniya,64.3833,-173.3,43.9,86,100,4.79,RU,1628352845
207,cam ranh,11.9214,109.1591,84.16,79,20,1.14,VN,1628352845
208,niamtougou,9.7681,1.1053,81.23,67,89,9.91,TG,1628352846
209,harper,4.375,-7.7169,80.49,69,82,11.3,LR,1628352557
210,jiblah,13.9216,44.1467,61.72,74,89,6.33,YE,1628352686
211,plettenberg bay,-34.0527,23.3716,59.25,83,94,6.78,ZA,1628352846
212,ostrovnoy,68.0531,39.5131,58.64,77,33,10.98,RU,1628352649
213,morant bay,17.8815,-76.4093,90.63,66,4,10.71,JM,1628352847
214,beihai,21.4833,109.1,85.01,87,100,7.05,CN,1628352847
215,bathsheba,13.2167,-59.5167,86.61,66,20,16.11,BB,1628352847
216,namatanai,-3.6667,152.4333,77.97,83,21,6.91,PG,1628352646
217,west wendover,40.7391,-114.0733,72.61,33,1,9.22,US,1628352848
218,limoux,42.9167,2.1667,70.09,90,100,6.96,FR,1628352848
219,hovd,48.0056,91.6419,58.95,61,72,4.63,MN,1628352849
220,mount gambier,-37.8333,140.7667,39.11,93,75,0.0,AU,1628352850
221,ilulissat,69.2167,-51.1,51.82,43,75,9.22,GL,1628352850
222,pinega,64.7001,43.3936,63.48,57,94,4.27,RU,1628352851
223,port elizabeth,-33.918,25.5701,61.11,87,93,10.71,ZA,1628352851
224,conakry,9.538,-13.6773,80.22,67,100,8.39,GN,1628352852
225,brigantine,39.4101,-74.3646,89.2,68,1,9.22,US,1628352852
226,perth,-31.9333,115.8333,58.05,94,90,5.75,AU,1628352852
227,pemba,-12.974,40.5178,76.64,71,61,11.72,MZ,1628352853
228,bethel,41.3712,-73.414,85.35,69,20,6.91,US,1628352853
229,honiara,-9.4333,159.95,77.18,83,100,3.22,SB,1628352853
230,sangar,63.9242,127.4739,63.72,42,34,15.32,RU,1628352854
231,inhambane,-23.865,35.3833,69.28,74,0,7.72,MZ,1628352855
232,camacha,33.0833,-16.3333,74.53,73,40,16.11,PT,1628352855
233,ferkessedougou,9.6,-5.2,80.38,65,96,7.63,CI,1628352856
234,guerrero negro,27.9769,-114.0611,75.15,70,5,7.56,MX,1628352856
235,belaya gora,68.5333,146.4167,48.81,87,21,6.62,RU,1628352767
236,naze,28.3667,129.4833,79.99,85,100,13.24,JP,1628352765
237,vrangel,42.7297,133.0839,68.95,94,27,8.16,RU,1628352857
238,vanimo,-2.6741,141.3028,76.96,87,100,3.91,PG,1628352857
239,chumikan,54.7183,135.315,51.21,92,97,16.96,RU,1628352857
240,bluff,-46.6,168.3333,34.81,65,100,6.44,NZ,1628352858
241,ngunguru,-35.6167,174.5,48.16,84,21,7.83,NZ,1628352858
242,aden,12.7794,45.0367,85.14,75,1,10.38,YE,1628352711
243,begamganj,23.6,78.3333,73.76,97,62,7.92,IN,1628352859
244,kismayo,-0.3582,42.5454,75.97,80,74,13.42,SO,1628352859
245,la ronge,55.1001,-105.2842,59.97,94,99,5.46,CA,1628352744
246,tiksi,71.6872,128.8694,46.35,80,100,4.38,RU,1628352860
247,terrace bay,48.7834,-87.1,62.51,55,68,9.08,CA,1628352860
248,tokmak,47.2514,35.7058,88.45,46,94,1.77,UA,1628352861
249,canakkale,40.0833,26.8333,81.21,34,0,10.6,TR,1628352862
250,liberal,37.0431,-100.921,88.83,45,1,23.02,US,1628352862
251,hualmay,-11.0964,-77.6139,67.42,71,45,11.65,PE,1628352863
252,isangel,-19.55,169.2667,68.88,77,99,8.25,VU,1628352753
253,senanga,-16.1167,23.2667,78.24,11,0,6.2,ZM,1628352863
254,barcelos,41.5388,-8.6151,77.29,54,4,12.39,PT,1628352863
255,zaragoza,41.6561,-0.8773,87.94,29,20,8.01,ES,1628352864
256,phek,25.6667,94.5,61.97,99,92,1.28,IN,1628352864
257,arcos,-20.2819,-45.5394,74.61,27,100,10.74,BR,1628352864
258,bolshaya dzhalga,45.9695,42.6966,97.07,18,58,18.77,RU,1628352865
259,jamtara,23.95,86.8,85.59,75,100,4.34,IN,1628352865
260,chuy,-33.6971,-53.4616,68.65,62,6,7.16,UY,1628352865
261,fallon,39.4735,-118.7774,74.44,22,11,1.14,US,1628352866
262,vila velha,-20.3297,-40.2925,71.55,73,90,9.22,BR,1628352866
263,heihe,50.2441,127.4902,63.18,95,77,5.19,CN,1628352867
264,kutum,14.2,24.6667,82.09,45,99,11.9,SD,1628352868
265,myitkyina,25.3833,97.4,76.51,98,96,0.89,MM,1628352869
266,mahebourg,-20.4081,57.7,72.25,70,11,13.82,MU,1628352870
267,bredasdorp,-34.5322,20.0403,53.28,87,100,4.14,ZA,1628352871
268,hami,42.8,93.45,84.58,18,0,7.23,CN,1628352871
269,skegness,53.1436,0.3363,70.34,71,81,11.56,GB,1628352872
270,katsuura,35.1333,140.3,80.71,90,98,13.4,JP,1628352580
271,najran,17.4924,44.1277,92.64,18,84,15.93,SA,1628352874
272,magnitogorsk,53.4186,59.0472,68.83,42,32,11.18,RU,1628352875
273,pont-audemer,49.35,0.5167,66.63,77,81,19.55,FR,1628352875
274,marzuq,14.4,46.4667,87.24,42,7,8.84,YE,1628352876
275,akureyri,65.6835,-18.0878,64.83,52,86,4.59,IS,1628352878
276,olafsvik,64.8945,-23.7142,54.82,76,49,2.06,IS,1628352878
277,altamont,42.2068,-121.7372,69.78,63,1,1.01,US,1628352880
278,avera,33.194,-82.5271,83.44,65,98,3.24,US,1628352880
279,humaita,-7.5061,-63.0208,101.03,18,0,2.46,BR,1628352880
280,sitka,57.0531,-135.33,57.09,94,90,0.0,US,1628352881
281,broome,42.2506,-75.833,84.7,72,1,1.99,US,1628352881
282,bilibino,68.0546,166.4372,40.93,80,33,7.52,RU,1628352883
283,itoman,26.1247,127.6694,84.58,92,75,26.46,JP,1628352883
284,sfantu gheorghe,45.8667,25.7833,75.81,50,0,4.94,RO,1628352647
285,clinton,42.587,-82.9199,79.12,76,75,1.01,US,1628352884
286,fruitville,27.3298,-82.4576,92.17,66,40,1.99,US,1628352884
287,san pedro,14.35,121.0167,82.35,85,98,9.69,PH,1628352884
288,baicheng,45.6167,122.8167,69.98,75,11,2.46,CN,1628352885
289,seoul,37.5683,126.9778,78.24,68,94,2.64,KR,1628352661
290,shirokiy,49.758,129.523,62.06,98,66,11.54,RU,1628352885
291,luderitz,-26.6481,15.1594,64.44,50,3,0.92,NA,1628352886
292,sao joao da barra,-21.6403,-41.0511,75.29,60,99,12.44,BR,1628352886
293,howard springs,-12.497,131.047,67.82,86,47,7.11,AU,1628352887
294,conceicao do araguaia,-8.2578,-49.2647,95.94,23,0,7.43,BR,1628352887
295,vaitape,-16.5167,-151.75,77.86,69,86,10.11,PF,1628352887
296,quimper,48.0,-4.1,65.23,77,90,14.97,FR,1628352888
297,trelew,-43.249,-65.3051,53.96,24,0,28.41,AR,1628352622
298,kibala,9.1104,18.3463,77.41,88,86,5.84,TD,1628352889
299,alexandria,31.2156,29.9553,82.99,71,0,16.17,EG,1628352747
300,chokurdakh,70.6333,147.9167,46.33,78,7,7.43,RU,1628352890
301,haicheng,40.8516,122.7475,71.19,82,93,2.42,CN,1628352890
302,andenes,69.3143,16.1194,66.47,77,87,5.75,NO,1628352890
303,tilichiki,60.4667,166.1,47.82,87,100,7.54,RU,1628352891
304,serik,36.9169,31.0989,84.45,63,13,7.87,TR,1628352891
305,nurlat,54.4277,50.8051,71.71,38,47,12.62,RU,1628352891
306,los llanos de aridane,28.6585,-17.9182,73.15,96,75,8.05,ES,1628352892
307,baker city,44.7749,-117.8344,68.94,65,1,3.44,US,1628352657
308,khatanga,71.9667,102.5,51.03,71,9,6.78,RU,1628352892
309,gobabis,-22.45,18.9667,74.89,14,0,7.65,NA,1628352893
310,pacifica,37.6138,-122.4869,71.71,94,75,1.01,US,1628352797
311,ca mau,9.1769,105.15,80.1,86,72,5.06,VN,1628352894
312,katyuzhanka,50.806,30.1376,72.64,60,97,9.55,UA,1628352894
313,yulara,-25.2406,130.9889,51.64,40,0,6.91,AU,1628352895
314,jieshou,33.2634,115.3611,76.28,95,0,5.26,CN,1628352895
315,santa isabel do rio negro,-0.4139,-65.0192,91.99,48,25,2.08,BR,1628352895
316,henties bay,-22.116,14.2845,57.85,63,2,10.74,NA,1628352896
317,sinnamary,5.3833,-52.95,84.69,68,69,2.39,GF,1628352693
318,bambous virieux,-20.3428,57.7575,72.21,69,15,13.78,MU,1628352896
319,astaneh-ye ashrafiyeh,37.2596,49.9444,83.75,63,1,3.96,IR,1628352897
320,matay,28.419,30.7792,107.1,8,0,7.87,EG,1628352897
321,houma,29.5958,-90.7195,90.0,70,40,0.0,US,1628352898
322,prince rupert,54.3161,-130.3201,57.29,94,75,4.61,CA,1628352899
323,orsha,54.5153,30.4053,63.28,73,69,11.3,BY,1628352900
324,sept-iles,50.2001,-66.3821,70.25,76,100,8.01,CA,1628352722
325,abnub,27.2696,31.1511,106.45,9,0,8.84,EG,1628352900
326,surab,28.4914,66.2585,83.71,12,5,7.58,PK,1628352900
327,torbay,47.6666,-52.7314,78.28,80,42,19.71,CA,1628352901
328,nadym,65.5333,72.5167,68.7,66,55,12.15,RU,1628352901
329,nagato,34.3833,131.2,79.32,86,65,4.16,JP,1628352902
330,schleiden,50.5295,6.477,70.52,79,56,13.65,DE,1628352902
331,mahibadhoo,3.7833,72.9667,82.98,76,100,11.95,MV,1628352902
332,alugan,12.2188,125.4808,81.86,76,87,2.59,PH,1628352903
333,poya,-21.35,165.15,63.59,77,100,2.95,NC,1628352903
334,teeli,51.0333,90.2333,54.54,87,100,3.04,RU,1628352904
335,kirakira,-10.4544,161.9205,76.91,83,100,6.6,SB,1628352905
336,phan thiet,10.9333,108.1,80.31,84,63,8.03,VN,1628352905
337,moose factory,51.2585,-80.6094,64.49,54,0,4.41,CA,1628352906
338,longonjo,-12.9067,15.2533,82.92,9,9,5.28,AO,1628352906
339,vardo,70.3705,31.1107,58.05,71,17,10.04,NO,1628352907
340,sharya,58.3686,45.5144,60.89,90,100,5.57,RU,1628352907
341,dolores,-36.3132,-57.6792,71.92,58,53,8.19,AR,1628352907
342,acopiara,-6.0953,-39.4525,90.39,30,10,11.05,BR,1628352719
343,lubao,14.9167,120.55,83.14,89,95,4.92,PH,1628352908
344,sembe,1.6481,14.5806,77.58,76,92,3.24,CG,1628352908
345,correntina,-13.3433,-44.6367,82.11,28,32,9.82,BR,1628352908
346,barguzin,53.6167,109.6167,55.58,89,74,4.32,RU,1628352910
347,tlacotepec,20.0667,-97.8667,72.68,67,40,5.21,MX,1628352910
348,thompson,55.7435,-97.8558,72.66,45,5,9.75,CA,1628352911
349,khash,28.2211,61.2158,88.79,11,56,9.95,IR,1628352911
350,aklavik,68.2191,-135.0107,43.52,93,90,11.5,CA,1628352911
351,hrebinka,50.1171,32.4361,71.83,58,100,8.21,UA,1628352912
352,yuanli,24.4397,120.6535,79.02,94,75,1.14,TW,1628352912
353,mato verde,-15.3972,-42.8664,81.36,22,66,10.33,BR,1628352913
354,ovalle,-30.5983,-71.2003,59.11,66,95,2.42,CL,1628352913
355,anloga,5.7947,0.8973,77.7,80,90,15.23,GH,1628352915
356,marovoay,-16.1,46.6333,75.34,46,0,6.17,MG,1628352915
357,flinders,-34.5833,150.8552,54.21,76,98,1.01,AU,1628352915
358,marion,39.7684,-86.1555,83.79,67,75,4.61,US,1628352916
359,buenos aires,-34.6132,-58.3772,77.02,71,12,4.97,AR,1628352867
360,krasnoselkup,65.7,82.4667,68.07,57,20,6.55,RU,1628352916
361,adre,13.4667,22.2,80.78,60,81,11.01,TD,1628352917
362,jatibonico,21.9419,-79.17,88.5,58,87,9.75,CU,1628352917
363,iskateley,67.6803,53.1512,51.93,71,100,8.77,RU,1628352917
364,ballina,-28.8667,153.5667,50.77,80,0,8.52,AU,1628352918
365,dubrovka,53.6907,33.5071,75.18,83,99,6.46,RU,1628352918
366,manokwari,-0.8667,134.0833,78.15,82,99,0.69,ID,1628352918
367,bubaque,11.2833,-15.8333,80.24,74,48,13.13,GW,1628352919
368,mangrol,21.1167,70.1167,82.15,78,79,9.28,IN,1628352920
369,kruisfontein,-34.0033,24.7314,58.89,82,100,6.55,ZA,1628352921
370,sinop,41.7711,34.8709,70.23,77,100,1.9,TR,1628352921
371,yangambi,0.8102,24.4336,76.55,71,87,1.83,CD,1628352921
372,jambi,-1.6,103.6167,75.76,94,37,1.99,ID,1628352922
373,tecoanapa,16.5167,-98.75,82.65,69,100,4.09,MX,1628352678
374,los alamos,35.8881,-106.307,80.67,28,1,1.01,US,1628352872
375,fonte boa,-2.4959,-66.2662,91.6,48,5,0.58,BR,1628352922
376,joensuu,62.6012,29.7632,70.29,49,0,11.5,FI,1628352923
377,sembakung,3.8167,117.25,74.95,98,95,0.43,ID,1628352923
378,belmonte,-15.8631,-38.8828,78.8,52,25,12.28,BR,1628352924
379,kavieng,-2.5744,150.7967,82.06,78,84,14.94,PG,1628352924
380,puerto carreno,6.189,-67.4859,79.57,75,93,2.13,CO,1628352800
381,barentu,15.1139,37.5928,80.96,61,25,1.52,ER,1628352925
382,mahanje,-9.9333,35.3333,68.45,46,23,4.79,TZ,1628352926
383,kautokeino,69.0125,23.0412,68.27,44,55,12.91,NO,1628352926
384,baykit,61.67,96.37,58.89,64,18,3.91,RU,1628352927
385,koutiala,12.3917,-5.4642,82.51,67,95,13.27,ML,1628352927
386,niamey,13.5137,2.1098,99.07,33,20,10.27,NE,1628352927
387,kosa,59.9445,54.9977,55.94,73,1,4.9,RU,1628352928
388,pustoshka,56.3355,29.369,64.72,68,49,9.78,RU,1628352928
389,koryukivka,51.7688,32.2481,70.7,57,80,11.21,UA,1628352928
390,srednekolymsk,67.45,153.6833,41.4,78,73,7.05,RU,1628352736
391,yerbogachen,61.2767,108.0108,53.04,65,97,5.79,RU,1628352731
392,namibe,-15.1961,12.1522,71.6,82,49,11.14,AO,1628352764
393,asfi,32.2994,-9.2372,73.83,75,10,20.02,MA,1628352929
394,ekhabi,53.5102,142.9671,51.71,85,25,13.44,RU,1628352929
395,pandamatenga,-18.5278,25.627,72.48,14,0,4.03,BW,1628352930
396,judaberg,59.1659,5.8732,64.26,66,100,21.9,NO,1628352930
397,tortoli,39.9256,9.6572,90.99,58,0,4.61,IT,1628352930
398,porangatu,-13.4408,-49.1486,88.14,27,100,6.69,BR,1628352931
399,gamba,-2.65,10.0,74.77,78,100,8.12,GA,1628352931
400,usinsk,65.9939,57.5281,52.25,86,100,7.47,RU,1628352932
401,atambua,-9.1061,124.8925,67.66,78,42,5.41,ID,1628352932
402,mnogovershinnyy,53.9353,139.9242,44.37,98,83,4.18,RU,1628352932
403,narsaq,60.9167,-46.05,52.02,75,100,4.54,GL,1628352932
404,yibin,28.7667,104.6238,78.22,95,99,3.36,CN,1628352934
405,uglekamensk,43.2172,133.2303,65.55,96,20,2.35,RU,1628352934
406,warren,39.4334,-84.1666,84.07,63,75,1.01,US,1628352674
407,kahului,20.8947,-156.47,75.22,72,20,11.5,US,1628352935
408,belyy yar,53.6039,91.3903,60.69,100,0,2.24,RU,1628352935
409,narok,-1.0783,35.8601,63.79,67,99,2.93,KE,1628352936
410,kushiro,42.975,144.3747,69.78,96,5,1.07,JP,1628352936
411,klyuchi,52.2667,79.1667,71.56,42,54,8.12,RU,1628352936
412,chapais,49.7834,-74.8492,56.98,43,22,8.25,CA,1628352937
413,zhangye,38.9342,100.4517,67.55,48,79,10.85,CN,1628352937
414,panaba,21.2833,-88.2667,93.13,45,7,8.05,MX,1628352937
415,linxia,35.6003,103.2064,69.55,51,99,6.69,CN,1628352938
416,puerto madero,14.7208,-92.4215,86.2,66,75,0.0,MX,1628352939
417,houlton,46.1262,-67.8403,84.72,57,1,9.22,US,1628352940
418,jimenez,28.3333,-105.4,83.14,39,1,8.97,MX,1628352940
419,takoradi,4.8845,-1.7554,80.47,70,85,15.68,GH,1628352940
420,praia da vitoria,38.7333,-27.0667,77.25,53,20,12.24,PT,1628352940
421,safford,32.834,-109.7076,90.52,43,1,16.11,US,1628352941
422,vao,-22.6667,167.4833,67.42,61,100,7.43,NC,1628352941
423,cabedelo,-6.9811,-34.8339,83.07,70,84,22.35,BR,1628352942
424,sawakin,19.1059,37.3321,95.97,43,6,17.58,SD,1628352942
425,san policarpo,12.1791,125.5072,82.17,75,85,2.77,PH,1628352942
426,makinsk,52.6292,70.4169,56.91,70,52,8.34,KZ,1628352943
427,lompoc,34.6391,-120.4579,62.28,87,1,0.0,US,1628352648
428,kieta,-6.2167,155.6333,78.12,85,86,7.11,PG,1628352944
429,middelburg,-25.7751,29.4648,63.91,13,0,5.26,ZA,1628352945
430,hay river,60.8156,-115.7999,60.78,94,90,2.3,CA,1628352945
431,tuy hoa,13.0833,109.3,85.1,67,100,14.58,VN,1628352946
432,mweka,-4.85,21.5667,91.0,17,97,2.55,CD,1628352946
433,zaysan,47.4667,84.8667,68.43,36,73,8.79,KZ,1628352946
434,ponta do sol,32.6667,-17.1,78.12,81,56,4.92,PT,1628352947
435,zhongshu,24.5167,103.7667,66.7,91,100,3.31,CN,1628352947
436,bichura,50.5881,107.6022,57.33,93,74,3.58,RU,1628352947
437,port hedland,-20.3167,118.5667,64.45,42,10,5.75,AU,1628352948
438,tonj,7.2737,28.6822,76.14,89,95,5.17,SS,1628352948
439,eureka,40.8021,-124.1637,61.2,93,73,6.02,US,1628352816
440,kitimat,54.0524,-128.6534,59.92,92,99,1.01,CA,1628352950
441,progreso,21.2833,-89.6667,88.11,63,2,8.28,MX,1628352950
442,komsomolskiy,40.4272,71.7189,86.72,30,63,4.61,UZ,1628352951
443,calahorra,42.3051,-1.9652,80.51,43,73,20.67,ES,1628352951
444,genhe,50.7833,121.5167,56.97,91,12,3.69,CN,1628352951
445,aykhal,66.0,111.5,53.96,80,100,7.87,RU,1628352952
446,henderson,36.0397,-114.9819,93.16,12,1,0.0,US,1628352952
447,orlik,52.5178,99.825,51.67,86,95,3.74,RU,1628352953
448,lorengau,-2.0226,147.2712,79.48,79,58,6.82,PG,1628352953
449,kilindoni,-7.9139,39.6668,75.81,72,20,8.88,TZ,1628352953
450,katastarion,37.8333,20.7667,89.51,37,0,8.05,GR,1628352954
451,inirida,3.8653,-67.9239,75.27,93,100,1.36,CO,1628352955
452,izhma,65.0083,53.9113,54.16,71,100,6.85,RU,1628352955
453,abu samrah,35.3029,37.1841,92.17,20,0,15.9,SY,1628352956
454,denpasar,-8.65,115.2167,80.26,89,40,11.5,ID,1628352956
455,north bend,43.4065,-124.2243,65.86,94,20,0.0,US,1628352956
456,binga,-17.6203,27.3414,72.73,32,0,6.64,ZW,1628352957
457,bambanglipuro,-7.95,110.2833,76.78,87,6,4.21,ID,1628352957
458,gigmoto,13.7796,124.39,82.11,84,94,7.56,PH,1628352957
459,berlevag,70.8578,29.0864,62.6,62,38,6.85,NO,1628352958
460,sobolevo,54.4299,31.8996,66.79,68,100,9.22,RU,1628352958
461,san fernando,15.0286,120.6898,83.14,89,94,4.09,PH,1628352958
462,certesti,46.0167,27.6167,77.23,42,0,11.92,RO,1628352959
463,pangnirtung,66.1451,-65.7125,44.6,81,75,11.5,CA,1628352960
464,tura,25.5198,90.2201,75.0,98,100,5.53,IN,1628352961
465,ligayan,4.6533,119.4706,84.49,75,99,11.05,PH,1628352961
466,maua,-23.6678,-46.4614,73.11,62,98,2.66,BR,1628352962
467,yabrud,33.9674,36.6574,83.86,18,10,16.91,SY,1628352962
468,rolla,37.9514,-91.7713,87.06,63,1,1.01,US,1628352962
469,richards bay,-28.783,32.0377,63.93,75,1,5.88,ZA,1628352750
470,mwinilunga,-11.7358,24.4293,75.58,17,1,5.79,ZM,1628352963
471,anadyr,64.75,177.4833,37.9,93,0,8.95,RU,1628352963
472,antibes,43.5624,7.1278,83.19,61,40,4.61,FR,1628352668
473,port hardy,50.6996,-127.4199,60.98,94,75,0.0,CA,1628352964
474,tessalit,20.1986,1.0114,107.11,13,100,7.49,ML,1628352964
475,te anau,-45.4167,167.7167,35.94,99,100,3.36,NZ,1628352964
476,coihaique,-45.5752,-72.0662,45.21,61,75,0.0,CL,1628352965
477,clyde river,70.4692,-68.5914,39.43,100,90,12.66,CA,1628352966
478,saint-augustin,51.226,-58.6502,79.41,51,65,22.19,CA,1628352967
479,uchaly,54.2996,59.4521,55.65,63,69,5.48,RU,1628352967
480,otsuchi,39.3667,141.9,75.92,96,100,6.8,JP,1628352967
481,eloy,32.7559,-111.5548,95.36,45,6,7.27,US,1628352968
482,timbiqui,2.7717,-77.6654,83.21,71,81,5.35,CO,1628352968
483,lavrentiya,65.5833,-171.0,42.66,86,100,14.58,RU,1628352737
484,nacala,-14.5428,40.6728,73.92,73,8,7.96,MZ,1628352969
485,oriximina,-1.7656,-55.8661,92.62,36,7,6.62,BR,1628352969
486,valer,60.6785,11.8331,64.89,90,100,5.84,NO,1628352969
487,vostok,46.4856,135.8833,61.3,99,100,3.24,RU,1628352914
488,corning,42.1428,-77.0547,84.22,61,1,0.0,US,1628352970
489,nagram,26.6167,81.1333,86.05,72,69,4.79,IN,1628352971
490,khudumelapye,-23.8833,24.75,69.35,13,2,3.83,BW,1628352972
491,kapit,2.0167,112.9333,76.44,93,69,0.27,MY,1628352972
492,puerto quijarro,-17.7833,-57.7667,96.84,18,0,7.4,BO,1628352973
493,tsaratanana,-16.7833,47.65,71.22,49,0,6.89,MG,1628352973
494,redlands,34.0556,-117.1825,98.94,37,1,0.0,US,1628352720
495,halifax,44.6453,-63.5724,82.42,77,56,8.01,CA,1628352806
496,coos bay,43.3665,-124.2179,72.01,94,20,0.0,US,1628352974
497,saint-pierre,-21.3393,55.4781,69.48,74,75,3.44,RE,1628352974
498,meulaboh,4.1363,96.1285,79.11,85,98,6.02,ID,1628352974
499,elizabeth city,36.2946,-76.2511,82.98,92,40,4.61,US,1628352974
500,lakhnadon,22.6,79.6,73.35,87,39,3.94,IN,1628352975
501,ko samui,9.5357,99.9357,84.25,75,100,15.64,TH,1628352846
502,high level,58.5169,-117.136,60.91,77,75,2.3,CA,1628352977
503,kanlagay,5.8757,121.2915,82.36,78,100,5.08,PH,1628352977
504,kudat,6.8837,116.8477,76.93,100,40,2.3,MY,1628352977
505,beyneu,45.3167,55.2,94.69,13,0,8.72,KZ,1628352978
506,loralai,30.3705,68.598,85.69,33,30,8.34,PK,1628352978
507,sao felix do xingu,-6.6447,-51.995,97.52,20,4,5.03,BR,1628352978
508,pietarsaari,63.65,22.6833,73.53,47,1,13.89,FI,1628352979
509,vestmanna,62.1564,-7.1664,65.32,55,100,17.27,FO,1628352979
510,bulancak,40.9372,38.2291,75.02,88,75,8.05,TR,1628352979
511,deputatskiy,69.3,139.9,43.86,82,26,2.44,RU,1628352980
512,smithers,54.7804,-127.1743,55.72,76,75,2.3,CA,1628352980
513,sur,22.5667,59.5289,92.3,52,98,10.0,OM,1628352980
514,pacific grove,36.6177,-121.9166,71.62,86,75,3.0,US,1628352982
515,yabassi,4.457,9.9682,73.18,97,99,3.96,CM,1628352982
516,mabaruma,8.2,-59.7833,89.11,57,20,5.91,GY,1628352982
517,karratha,-20.7377,116.8463,70.7,68,91,6.15,AU,1628352983
518,iquique,-20.2208,-70.1431,60.84,65,14,6.87,CL,1628352743
519,unai,-16.3575,-46.9061,76.3,37,100,8.97,BR,1628352983
520,cockburn town,21.4612,-71.1419,85.96,66,40,10.36,TC,1628352984
521,dakar,14.6937,-17.4441,87.93,66,40,11.5,SN,1628352984
522,santa maria,-29.6842,-53.8069,79.9,44,0,12.66,BR,1628352927
523,caravelas,-17.7125,-39.2481,72.09,74,99,8.23,BR,1628352984
524,santa isabel,-23.3156,-46.2214,74.41,48,65,2.48,BR,1628352985
525,pitimbu,-7.4706,-34.8086,82.99,69,95,20.42,BR,1628352985
526,beloha,-25.1667,45.05,67.26,73,0,6.33,MG,1628352987
527,luebo,-5.35,21.4167,91.0,16,100,1.83,CD,1628352988
528,mamallapuram,12.6264,80.1722,87.85,72,93,15.88,IN,1628352988
529,nioro,13.35,-15.75,84.47,69,91,8.01,GM,1628352988
530,mackenzie,55.2999,-123.1698,55.62,62,90,8.05,CA,1628352988
531,nan,18.8333,100.6667,74.28,97,89,1.32,TH,1628352989
532,zhigansk,66.7697,123.3711,61.09,47,93,9.8,RU,1628352989
533,hashtrud,37.4779,47.0508,76.23,39,72,0.72,IR,1628352990
534,zalantun,48.0,122.7167,65.64,86,8,1.32,CN,1628352990
535,villacidro,39.4578,8.7406,88.52,28,0,6.38,IT,1628352991
536,soyo,-6.1349,12.3689,75.31,74,91,8.9,AO,1628352991
537,zhoukou,33.6333,114.6333,76.86,91,0,5.93,CN,1628352991
538,butembo,0.15,29.2833,61.16,89,66,2.84,CD,1628352992
539,paita,-5.0892,-81.1144,68.56,69,55,11.79,PE,1628352993
540,horki,54.2861,30.9842,64.65,68,87,12.21,BY,1628352993
541,vanderhoof,54.0166,-124.0198,58.51,59,28,8.25,CA,1628352994
542,rawson,-43.3002,-65.1023,53.02,29,0,28.66,AR,1628352994
543,fuyang,32.9,115.8167,75.29,92,0,5.88,CN,1628352994
544,villamontes,-21.25,-63.5,92.25,20,5,4.47,BO,1628352995
545,carballo,43.213,-8.691,72.82,73,34,7.74,ES,1628352995
546,wanning,18.8003,110.3967,81.93,86,100,4.38,CN,1628352995
547,sribne,50.6638,32.9187,73.89,48,95,9.6,UA,1628352996
548,san carlos de bariloche,-41.1456,-71.3082,40.75,42,40,18.41,AR,1628352996
549,fraga,41.5229,0.3489,89.58,19,68,16.98,ES,1628352997
550,palm beach gardens,26.8234,-80.1386,93.94,84,75,10.36,US,1628352907
551,quincy,42.2529,-71.0023,89.58,62,75,4.0,US,1628352949
552,qasigiannguit,68.8193,-51.1922,52.05,60,100,6.62,GL,1628352998
553,ocampo,21.65,-101.5,64.9,66,60,8.21,MX,1628352999
554,pozo colorado,-23.4923,-58.7972,92.61,17,1,12.37,PY,1628352999
555,fort frances,48.5999,-93.4003,70.16,77,90,10.36,CA,1628352878
556,shubarkuduk,49.1447,56.4872,82.06,27,1,8.16,KZ,1628353000
557,itarema,-2.9248,-39.9167,90.82,43,18,17.36,BR,1628353000
558,oranjemund,-28.55,16.4333,62.29,57,21,5.7,NA,1628353000
559,kokopo,-4.352,152.2633,76.69,83,67,5.99,PG,1628353001
560,osa,57.2829,55.4567,59.27,69,26,4.12,RU,1628352733
561,ambon,-3.6954,128.1814,75.34,94,40,11.5,ID,1628353001
562,kiama,-34.6833,150.8667,49.44,75,97,9.64,AU,1628353002
